header:
  stamp:
    sec: 1750425290
    nanosec: 310548904
  frame_id: odom_combined
child_frame_id: base_footprint
pose:
  pose:
    position:
      x: 5.191230297088623
      y: -1.3025457859039307
      z: -20.383176803588867
    orientation:
      x: -0.0
      y: 0.0
      z: 0.6938418831017892
      w: -0.720127378492002
  covariance:
  - 0.001
  - 0.0
  - 0.0
  - 0.0
  - 0.0
  - 0.0
  - 0.0
  - 0.001
  - 0.0
  - 0.0
  - 0.0
  - 0.0
  - 0.0
  - 0.0
  - 1000000.0
  - 0.0
  - 0.0
  - 0.0
  - 0.0
  - 0.0
  - 0.0
  - 1000000.0
  - 0.0
  - 0.0
  - 0.0
  - 0.0
  - 0.0
  - 0.0
  - 1000000.0
  - 0.0
  - 0.0
  - 0.0
  - 0.0
  - 0.0
  - 0.0
  - 1000.0
twist:
  twist:
    linear:
      x: 0.4699999988079071
      y: 0.0
      z: 0.0
    angular:
      x: 0.0
      y: 0.0
      z: -0.7789999842643738
  covariance:
  - 0.001
  - 0.0
  - 0.0
  - 0.0
  - 0.0
  - 0.0
  - 0.0
  - 0.001
  - 0.0
  - 0.0
  - 0.0
  - 0.0
  - 0.0
  - 0.0
  - 1000000.0
  - 0.0
  - 0.0
  - 0.0
  - 0.0
  - 0.0
  - 0.0
  - 1000000.0
  - 0.0
  - 0.0
  - 0.0
  - 0.0
  - 0.0
  - 0.0
  - 1000000.0
  - 0.0
  - 0.0
  - 0.0
  - 0.0
  - 0.0
  - 0.0
  - 1000.0
---
header:
  stamp:
    sec: 1750425290
    nanosec: 360737000
  frame_id: odom_combined
child_frame_id: base_footprint
pose:
  pose:
    position:
      x: 5.192173957824707
      y: -1.3279222249984741
      z: -20.404003143310547
    orientation:
      x: -0.0
      y: 0.0
      z: 0.70130293857268
      w: -0.7128633728487695
  covariance:
  - 0.001
  - 0.0
  - 0.0
  - 0.0
  - 0.0
  - 0.0
  - 0.0
  - 0.001
  - 0.0
  - 0.0
  - 0.0
  - 0.0
  - 0.0
  - 0.0
  - 1000000.0
  - 0.0
  - 0.0
  - 0.0
  - 0.0
  - 0.0
  - 0.0
  - 1000000.0
  - 0.0
  - 0.0
  - 0.0
  - 0.0
  - 0.0
  - 0.0
  - 1000000.0
  - 0.0
  - 0.0
  - 0.0
  - 0.0
  - 0.0
  - 0.0
  - 1000.0
twist:
  twist:
    linear:
      x: 0.5059999823570251
      y: 0.0
      z: 0.0
    angular:
      x: 0.0
      y: 0.0
      z: -0.41499999165534973
  covariance:
  - 0.001
  - 0.0
  - 0.0
  - 0.0
  - 0.0
  - 0.0
  - 0.0
  - 0.001
  - 0.0
  - 0.0
  - 0.0
  - 0.0
  - 0.0
  - 0.0
  - 1000000.0
  - 0.0
  - 0.0
  - 0.0
  - 0.0
  - 0.0
  - 0.0
  - 1000000.0
  - 0.0
  - 0.0
  - 0.0
  - 0.0
  - 0.0
  - 0.0
  - 1000000.0
  - 0.0
  - 0.0
  - 0.0
  - 0.0
  - 0.0
  - 0.0
  - 1000.0
---
header:
  stamp:
    sec: 1750425290
    nanosec: 410471432
  frame_id: odom_combined
child_frame_id: base_footprint
pose:
  pose:
    position:
      x: 5.192577362060547
      y: -1.3525875806808472
      z: -20.43563461303711
    orientation:
      x: -0.0
      y: 0.0
      z: 0.7124892174070584
      w: -0.7016830588511295
  covariance:
  - 0.001
  - 0.0
  - 0.0
  - 0.0
  - 0.0
  - 0.0
  - 0.0
  - 0.001
  - 0.0
  - 0.0
  - 0.0
  - 0.0
  - 0.0
  - 0.0
  - 1000000.0
  - 0.0
  - 0.0
  - 0.0
  - 0.0
  - 0.0
  - 0.0
  - 1000000.0
  - 0.0
  - 0.0
  - 0.0
  - 0.0
  - 0.0
  - 0.0
  - 1000000.0
  - 0.0
  - 0.0
  - 0.0
  - 0.0
  - 0.0
  - 0.0
  - 1000.0
twist:
  twist:
    linear:
      x: 0.4959999918937683
      y: 0.0
      z: 0.0
    angular:
      x: 0.0
      y: 0.0
      z: -0.6359999775886536
  covariance:
  - 0.001
  - 0.0
  - 0.0
  - 0.0
  - 0.0
  - 0.0
  - 0.0
  - 0.001
  - 0.0
  - 0.0
  - 0.0
  - 0.0
  - 0.0
  - 0.0
  - 1000000.0
  - 0.0
  - 0.0
  - 0.0
  - 0.0
  - 0.0
  - 0.0
  - 1000000.0
  - 0.0
  - 0.0
  - 0.0
  - 0.0
  - 0.0
  - 0.0
  - 1000000.0
  - 0.0
  - 0.0
  - 0.0
  - 0.0
  - 0.0
  - 0.0
  - 1000.0
---
header:
  stamp:
    sec: 1750425290
    nanosec: 461048616
  frame_id: odom_combined
child_frame_id: base_footprint
pose:
  pose:
    position:
      x: 5.19216775894165
      y: -1.3793877363204956
      z: -20.452980041503906
    orientation:
      x: -0.0
      y: 0.0
      z: 0.7185478426547971
      w: -0.6954775322151946
  covariance:
  - 0.001
  - 0.0
  - 0.0
  - 0.0
  - 0.0
  - 0.0
  - 0.0
  - 0.001
  - 0.0
  - 0.0
  - 0.0
  - 0.0
  - 0.0
  - 0.0
  - 1000000.0
  - 0.0
  - 0.0
  - 0.0
  - 0.0
  - 0.0
  - 0.0
  - 1000000.0
  - 0.0
  - 0.0
  - 0.0
  - 0.0
  - 0.0
  - 0.0
  - 1000000.0
  - 0.0
  - 0.0
  - 0.0
  - 0.0
  - 0.0
  - 0.0
  - 1000.0
twist:
  twist:
    linear:
      x: 0.5299999713897705
      y: 0.0
      z: 0.0
    angular:
      x: 0.0
      y: 0.0
      z: -0.34299999475479126
  covariance:
  - 0.001
  - 0.0
  - 0.0
  - 0.0
  - 0.0
  - 0.0
  - 0.0
  - 0.001
  - 0.0
  - 0.0
  - 0.0
  - 0.0
  - 0.0
  - 0.0
  - 1000000.0
  - 0.0
  - 0.0
  - 0.0
  - 0.0
  - 0.0
  - 0.0
  - 1000000.0
  - 0.0
  - 0.0
  - 0.0
  - 0.0
  - 0.0
  - 0.0
  - 1000000.0
  - 0.0
  - 0.0
  - 0.0
  - 0.0
  - 0.0
  - 0.0
  - 1000.0
---
header:
  stamp:
    sec: 1750425290
    nanosec: 510212808
  frame_id: odom_combined
child_frame_id: base_footprint
pose:
  pose:
    position:
      x: 5.191413879394531
      y: -1.4024853706359863
      z: -20.475696563720703
    orientation:
      x: -0.0
      y: 0.0
      z: 0.7264007387465263
      w: -0.6872713923542145
  covariance:
  - 0.001
  - 0.0
  - 0.0
  - 0.0
  - 0.0
  - 0.0
  - 0.0
  - 0.001
  - 0.0
  - 0.0
  - 0.0
  - 0.0
  - 0.0
  - 0.0
  - 1000000.0
  - 0.0
  - 0.0
  - 0.0
  - 0.0
  - 0.0
  - 0.0
  - 1000000.0
  - 0.0
  - 0.0
  - 0.0
  - 0.0
  - 0.0
  - 0.0
  - 1000000.0
  - 0.0
  - 0.0
  - 0.0
  - 0.0
  - 0.0
  - 0.0
  - 1000.0
twist:
  twist:
    linear:
      x: 0.4699999988079071
      y: 0.0
      z: 0.0
    angular:
      x: 0.0
      y: 0.0
      z: -0.4620000123977661
  covariance:
  - 0.001
  - 0.0
  - 0.0
  - 0.0
  - 0.0
  - 0.0
  - 0.0
  - 0.001
  - 0.0
  - 0.0
  - 0.0
  - 0.0
  - 0.0
  - 0.0
  - 1000000.0
  - 0.0
  - 0.0
  - 0.0
  - 0.0
  - 0.0
  - 0.0
  - 1000000.0
  - 0.0
  - 0.0
  - 0.0
  - 0.0
  - 0.0
  - 0.0
  - 1000000.0
  - 0.0
  - 0.0
  - 0.0
  - 0.0
  - 0.0
  - 0.0
  - 1000.0
---
header:
  stamp:
    sec: 1750425290
    nanosec: 560729864
  frame_id: odom_combined
child_frame_id: base_footprint
pose:
  pose:
    position:
      x: 5.189955234527588
      y: -1.4288145303726196
      z: -20.474130630493164
    orientation:
      x: -0.0
      y: 0.0
      z: 0.7258624055915432
      w: -0.6878399291614714
  covariance:
  - 0.001
  - 0.0
  - 0.0
  - 0.0
  - 0.0
  - 0.0
  - 0.0
  - 0.001
  - 0.0
  - 0.0
  - 0.0
  - 0.0
  - 0.0
  - 0.0
  - 1000000.0
  - 0.0
  - 0.0
  - 0.0
  - 0.0
  - 0.0
  - 0.0
  - 1000000.0
  - 0.0
  - 0.0
  - 0.0
  - 0.0
  - 0.0
  - 0.0
  - 1000000.0
  - 0.0
  - 0.0
  - 0.0
  - 0.0
  - 0.0
  - 0.0
  - 1000.0
twist:
  twist:
    linear:
      x: 0.5220000147819519
      y: 0.0
      z: 0.0
    angular:
      x: 0.0
      y: 0.0
      z: 0.03099999949336052
  covariance:
  - 0.001
  - 0.0
  - 0.0
  - 0.0
  - 0.0
  - 0.0
  - 0.0
  - 0.001
  - 0.0
  - 0.0
  - 0.0
  - 0.0
  - 0.0
  - 0.0
  - 1000000.0
  - 0.0
  - 0.0
  - 0.0
  - 0.0
  - 0.0
  - 0.0
  - 1000000.0
  - 0.0
  - 0.0
  - 0.0
  - 0.0
  - 0.0
  - 0.0
  - 1000000.0
  - 0.0
  - 0.0
  - 0.0
  - 0.0
  - 0.0
  - 0.0
  - 1000.0
---
header:
  stamp:
    sec: 1750425290
    nanosec: 610437736
  frame_id: odom_combined
child_frame_id: base_footprint
pose:
  pose:
    position:
      x: 5.1886138916015625
      y: -1.453732967376709
      z: -20.474328994750977
    orientation:
      x: -0.0
      y: 0.0
      z: 0.7259306234497638
      w: -0.6877679331997366
  covariance:
  - 0.001
  - 0.0
  - 0.0
  - 0.0
  - 0.0
  - 0.0
  - 0.0
  - 0.001
  - 0.0
  - 0.0
  - 0.0
  - 0.0
  - 0.0
  - 0.0
  - 1000000.0
  - 0.0
  - 0.0
  - 0.0
  - 0.0
  - 0.0
  - 0.0
  - 1000000.0
  - 0.0
  - 0.0
  - 0.0
  - 0.0
  - 0.0
  - 0.0
  - 1000000.0
  - 0.0
  - 0.0
  - 0.0
  - 0.0
  - 0.0
  - 0.0
  - 1000.0
twist:
  twist:
    linear:
      x: 0.5019999742507935
      y: 0.0
      z: 0.0
    angular:
      x: 0.0
      y: 0.0
      z: -0.004000000189989805
  covariance:
  - 0.001
  - 0.0
  - 0.0
  - 0.0
  - 0.0
  - 0.0
  - 0.0
  - 0.001
  - 0.0
  - 0.0
  - 0.0
  - 0.0
  - 0.0
  - 0.0
  - 1000000.0
  - 0.0
  - 0.0
  - 0.0
  - 0.0
  - 0.0
  - 0.0
  - 1000000.0
  - 0.0
  - 0.0
  - 0.0
  - 0.0
  - 0.0
  - 0.0
  - 1000000.0
  - 0.0
  - 0.0
  - 0.0
  - 0.0
  - 0.0
  - 0.0
  - 1000.0
---
header:
  stamp:
    sec: 1750425290
    nanosec: 661944808
  frame_id: odom_combined
child_frame_id: base_footprint
pose:
  pose:
    position:
      x: 5.187307834625244
      y: -1.4779047966003418
      z: -20.48978042602539
    orientation:
      x: -0.0
      y: 0.0
      z: 0.7312224059812649
      w: -0.6821391302300215
  covariance:
  - 0.001
  - 0.0
  - 0.0
  - 0.0
  - 0.0
  - 0.0
  - 0.0
  - 0.001
  - 0.0
  - 0.0
  - 0.0
  - 0.0
  - 0.0
  - 0.0
  - 1000000.0
  - 0.0
  - 0.0
  - 0.0
  - 0.0
  - 0.0
  - 0.0
  - 1000000.0
  - 0.0
  - 0.0
  - 0.0
  - 0.0
  - 0.0
  - 0.0
  - 1000000.0
  - 0.0
  - 0.0
  - 0.0
  - 0.0
  - 0.0
  - 0.0
  - 1000.0
twist:
  twist:
    linear:
      x: 0.4699999988079071
      y: 0.0
      z: 0.0
    angular:
      x: 0.0
      y: 0.0
      z: -0.30000001192092896
  covariance:
  - 0.001
  - 0.0
  - 0.0
  - 0.0
  - 0.0
  - 0.0
  - 0.0
  - 0.001
  - 0.0
  - 0.0
  - 0.0
  - 0.0
  - 0.0
  - 0.0
  - 1000000.0
  - 0.0
  - 0.0
  - 0.0
  - 0.0
  - 0.0
  - 0.0
  - 1000000.0
  - 0.0
  - 0.0
  - 0.0
  - 0.0
  - 0.0
  - 0.0
  - 1000000.0
  - 0.0
  - 0.0
  - 0.0
  - 0.0
  - 0.0
  - 0.0
  - 1000.0
---
header:
  stamp:
    sec: 1750425290
    nanosec: 711224872
  frame_id: odom_combined
child_frame_id: base_footprint
pose:
  pose:
    position:
      x: 5.185574531555176
      y: -1.502830147743225
      z: -20.50067138671875
    orientation:
      x: -0.0
      y: 0.0
      z: 0.7349261213145689
      w: -0.6781471788701355
  covariance:
  - 0.001
  - 0.0
  - 0.0
  - 0.0
  - 0.0
  - 0.0
  - 0.0
  - 0.001
  - 0.0
  - 0.0
  - 0.0
  - 0.0
  - 0.0
  - 0.0
  - 1000000.0
  - 0.0
  - 0.0
  - 0.0
  - 0.0
  - 0.0
  - 0.0
  - 1000000.0
  - 0.0
  - 0.0
  - 0.0
  - 0.0
  - 0.0
  - 0.0
  - 1000000.0
  - 0.0
  - 0.0
  - 0.0
  - 0.0
  - 0.0
  - 0.0
  - 1000.0
twist:
  twist:
    linear:
      x: 0.5070000290870667
      y: 0.0
      z: 0.0
    angular:
      x: 0.0
      y: 0.0
      z: -0.22100000083446503
  covariance:
  - 0.001
  - 0.0
  - 0.0
  - 0.0
  - 0.0
  - 0.0
  - 0.0
  - 0.001
  - 0.0
  - 0.0
  - 0.0
  - 0.0
  - 0.0
  - 0.0
  - 1000000.0
  - 0.0
  - 0.0
  - 0.0
  - 0.0
  - 0.0
  - 0.0
  - 1000000.0
  - 0.0
  - 0.0
  - 0.0
  - 0.0
  - 0.0
  - 0.0
  - 1000000.0
  - 0.0
  - 0.0
  - 0.0
  - 0.0
  - 0.0
  - 0.0
  - 1000.0
---
header:
  stamp:
    sec: 1750425290
    nanosec: 761622952
  frame_id: odom_combined
child_frame_id: base_footprint
pose:
  pose:
    position:
      x: 5.1836981773376465
      y: -1.5261399745941162
      z: -20.534589767456055
    orientation:
      x: -0.0
      y: 0.0
      z: 0.746320712088497
      w: -0.6655865043010704
  covariance:
  - 0.001
  - 0.0
  - 0.0
  - 0.0
  - 0.0
  - 0.0
  - 0.0
  - 0.001
  - 0.0
  - 0.0
  - 0.0
  - 0.0
  - 0.0
  - 0.0
  - 1000000.0
  - 0.0
  - 0.0
  - 0.0
  - 0.0
  - 0.0
  - 0.0
  - 1000000.0
  - 0.0
  - 0.0
  - 0.0
  - 0.0
  - 0.0
  - 0.0
  - 1000000.0
  - 0.0
  - 0.0
  - 0.0
  - 0.0
  - 0.0
  - 0.0
  - 1000.0
twist:
  twist:
    linear:
      x: 0.46399998664855957
      y: 0.0
      z: 0.0
    angular:
      x: 0.0
      y: 0.0
      z: -0.6729999780654907
  covariance:
  - 0.001
  - 0.0
  - 0.0
  - 0.0
  - 0.0
  - 0.0
  - 0.0
  - 0.001
  - 0.0
  - 0.0
  - 0.0
  - 0.0
  - 0.0
  - 0.0
  - 1000000.0
  - 0.0
  - 0.0
  - 0.0
  - 0.0
  - 0.0
  - 0.0
  - 1000000.0
  - 0.0
  - 0.0
  - 0.0
  - 0.0
  - 0.0
  - 0.0
  - 1000000.0
  - 0.0
  - 0.0
  - 0.0
  - 0.0
  - 0.0
  - 0.0
  - 1000.0
---
header:
  stamp:
    sec: 1750425290
    nanosec: 810336776
  frame_id: odom_combined
child_frame_id: base_footprint
pose:
  pose:
    position:
      x: 5.180893898010254
      y: -1.5505788326263428
      z: -20.55953025817871
    orientation:
      x: -0.0
      y: 0.0
      z: 0.7545624956865227
      w: -0.6562281920973271
  covariance:
  - 0.001
  - 0.0
  - 0.0
  - 0.0
  - 0.0
  - 0.0
  - 0.0
  - 0.001
  - 0.0
  - 0.0
  - 0.0
  - 0.0
  - 0.0
  - 0.0
  - 1000000.0
  - 0.0
  - 0.0
  - 0.0
  - 0.0
  - 0.0
  - 0.0
  - 1000000.0
  - 0.0
  - 0.0
  - 0.0
  - 0.0
  - 0.0
  - 0.0
  - 1000000.0
  - 0.0
  - 0.0
  - 0.0
  - 0.0
  - 0.0
  - 0.0
  - 1000.0
twist:
  twist:
    linear:
      x: 0.5049999952316284
      y: 0.0
      z: 0.0
    angular:
      x: 0.0
      y: 0.0
      z: -0.5120000243186951
  covariance:
  - 0.001
  - 0.0
  - 0.0
  - 0.0
  - 0.0
  - 0.0
  - 0.0
  - 0.001
  - 0.0
  - 0.0
  - 0.0
  - 0.0
  - 0.0
  - 0.0
  - 1000000.0
  - 0.0
  - 0.0
  - 0.0
  - 0.0
  - 0.0
  - 0.0
  - 1000000.0
  - 0.0
  - 0.0
  - 0.0
  - 0.0
  - 0.0
  - 0.0
  - 1000000.0
  - 0.0
  - 0.0
  - 0.0
  - 0.0
  - 0.0
  - 0.0
  - 1000.0
---
header:
  stamp:
    sec: 1750425290
    nanosec: 862606088
  frame_id: odom_combined
child_frame_id: base_footprint
pose:
  pose:
    position:
      x: 5.177342414855957
      y: -1.5759329795837402
      z: -20.58816146850586
    orientation:
      x: -0.0
      y: 0.0
      z: 0.7638791611150605
      w: -0.6453593008659219
  covariance:
  - 0.001
  - 0.0
  - 0.0
  - 0.0
  - 0.0
  - 0.0
  - 0.0
  - 0.001
  - 0.0
  - 0.0
  - 0.0
  - 0.0
  - 0.0
  - 0.0
  - 1000000.0
  - 0.0
  - 0.0
  - 0.0
  - 0.0
  - 0.0
  - 0.0
  - 1000000.0
  - 0.0
  - 0.0
  - 0.0
  - 0.0
  - 0.0
  - 0.0
  - 1000000.0
  - 0.0
  - 0.0
  - 0.0
  - 0.0
  - 0.0
  - 0.0
  - 1000.0
twist:
  twist:
    linear:
      x: 0.49000000953674316
      y: 0.0
      z: 0.0
    angular:
      x: 0.0
      y: 0.0
      z: -0.5479999780654907
  covariance:
  - 0.001
  - 0.0
  - 0.0
  - 0.0
  - 0.0
  - 0.0
  - 0.0
  - 0.001
  - 0.0
  - 0.0
  - 0.0
  - 0.0
  - 0.0
  - 0.0
  - 1000000.0
  - 0.0
  - 0.0
  - 0.0
  - 0.0
  - 0.0
  - 0.0
  - 1000000.0
  - 0.0
  - 0.0
  - 0.0
  - 0.0
  - 0.0
  - 0.0
  - 1000000.0
  - 0.0
  - 0.0
  - 0.0
  - 0.0
  - 0.0
  - 0.0
  - 1000.0
---
header:
  stamp:
    sec: 1750425290
    nanosec: 910572648
  frame_id: odom_combined
child_frame_id: base_footprint
pose:
  pose:
    position:
      x: 5.173198223114014
      y: -1.6003952026367188
      z: -20.61781883239746
    orientation:
      x: -0.0
      y: 0.0
      z: 0.7733646551320915
      w: -0.6339614421969377
  covariance:
  - 0.001
  - 0.0
  - 0.0
  - 0.0
  - 0.0
  - 0.0
  - 0.0
  - 0.001
  - 0.0
  - 0.0
  - 0.0
  - 0.0
  - 0.0
  - 0.0
  - 1000000.0
  - 0.0
  - 0.0
  - 0.0
  - 0.0
  - 0.0
  - 0.0
  - 1000000.0
  - 0.0
  - 0.0
  - 0.0
  - 0.0
  - 0.0
  - 0.0
  - 1000000.0
  - 0.0
  - 0.0
  - 0.0
  - 0.0
  - 0.0
  - 0.0
  - 1000.0
twist:
  twist:
    linear:
      x: 0.5170000195503235
      y: 0.0
      z: 0.0
    angular:
      x: 0.0
      y: 0.0
      z: -0.6179999709129333
  covariance:
  - 0.001
  - 0.0
  - 0.0
  - 0.0
  - 0.0
  - 0.0
  - 0.0
  - 0.001
  - 0.0
  - 0.0
  - 0.0
  - 0.0
  - 0.0
  - 0.0
  - 1000000.0
  - 0.0
  - 0.0
  - 0.0
  - 0.0
  - 0.0
  - 0.0
  - 1000000.0
  - 0.0
  - 0.0
  - 0.0
  - 0.0
  - 0.0
  - 0.0
  - 1000000.0
  - 0.0
  - 0.0
  - 0.0
  - 0.0
  - 0.0
  - 0.0
  - 1000.0
---
header:
  stamp:
    sec: 1750425290
    nanosec: 961256328
  frame_id: odom_combined
child_frame_id: base_footprint
pose:
  pose:
    position:
      x: 5.168059825897217
      y: -1.626078724861145
      z: -20.640464782714844
    orientation:
      x: -0.0
      y: 0.0
      z: 0.7804932554847518
      w: -0.6251642009446909
  covariance:
  - 0.001
  - 0.0
  - 0.0
  - 0.0
  - 0.0
  - 0.0
  - 0.0
  - 0.001
  - 0.0
  - 0.0
  - 0.0
  - 0.0
  - 0.0
  - 0.0
  - 1000000.0
  - 0.0
  - 0.0
  - 0.0
  - 0.0
  - 0.0
  - 0.0
  - 1000000.0
  - 0.0
  - 0.0
  - 0.0
  - 0.0
  - 0.0
  - 0.0
  - 1000000.0
  - 0.0
  - 0.0
  - 0.0
  - 0.0
  - 0.0
  - 0.0
  - 1000.0
twist:
  twist:
    linear:
      x: 0.5170000195503235
      y: 0.0
      z: 0.0
    angular:
      x: 0.0
      y: 0.0
      z: -0.44699999690055847
  covariance:
  - 0.001
  - 0.0
  - 0.0
  - 0.0
  - 0.0
  - 0.0
  - 0.0
  - 0.001
  - 0.0
  - 0.0
  - 0.0
  - 0.0
  - 0.0
  - 0.0
  - 1000000.0
  - 0.0
  - 0.0
  - 0.0
  - 0.0
  - 0.0
  - 0.0
  - 1000000.0
  - 0.0
  - 0.0
  - 0.0
  - 0.0
  - 0.0
  - 0.0
  - 1000000.0
  - 0.0
  - 0.0
  - 0.0
  - 0.0
  - 0.0
  - 0.0
  - 1000.0
---
header:
  stamp:
    sec: 1750425291
    nanosec: 10466216
  frame_id: odom_combined
child_frame_id: base_footprint
pose:
  pose:
    position:
      x: 5.162545680999756
      y: -1.6507247686386108
      z: -20.666458129882812
    orientation:
      x: -0.0
      y: 0.0
      z: 0.788552164798786
      w: -0.6149678718365279
  covariance:
  - 0.001
  - 0.0
  - 0.0
  - 0.0
  - 0.0
  - 0.0
  - 0.0
  - 0.001
  - 0.0
  - 0.0
  - 0.0
  - 0.0
  - 0.0
  - 0.0
  - 1000000.0
  - 0.0
  - 0.0
  - 0.0
  - 0.0
  - 0.0
  - 0.0
  - 1000000.0
  - 0.0
  - 0.0
  - 0.0
  - 0.0
  - 0.0
  - 0.0
  - 1000000.0
  - 0.0
  - 0.0
  - 0.0
  - 0.0
  - 0.0
  - 0.0
  - 1000.0
twist:
  twist:
    linear:
      x: 0.5130000114440918
      y: 0.0
      z: 0.0
    angular:
      x: 0.0
      y: 0.0
      z: -0.527999997138977
  covariance:
  - 0.001
  - 0.0
  - 0.0
  - 0.0
  - 0.0
  - 0.0
  - 0.0
  - 0.001
  - 0.0
  - 0.0
  - 0.0
  - 0.0
  - 0.0
  - 0.0
  - 1000000.0
  - 0.0
  - 0.0
  - 0.0
  - 0.0
  - 0.0
  - 0.0
  - 1000000.0
  - 0.0
  - 0.0
  - 0.0
  - 0.0
  - 0.0
  - 0.0
  - 1000000.0
  - 0.0
  - 0.0
  - 0.0
  - 0.0
  - 0.0
  - 0.0
  - 1000.0
---
header:
  stamp:
    sec: 1750425291
    nanosec: 61848200
  frame_id: odom_combined
child_frame_id: base_footprint
pose:
  pose:
    position:
      x: 5.1560492515563965
      y: -1.6765873432159424
      z: -20.6957950592041
    orientation:
      x: -0.0
      y: 0.0
      z: 0.797487643371051
      w: -0.6033352788213924
  covariance:
  - 0.001
  - 0.0
  - 0.0
  - 0.0
  - 0.0
  - 0.0
  - 0.0
  - 0.001
  - 0.0
  - 0.0
  - 0.0
  - 0.0
  - 0.0
  - 0.0
  - 1000000.0
  - 0.0
  - 0.0
  - 0.0
  - 0.0
  - 0.0
  - 0.0
  - 1000000.0
  - 0.0
  - 0.0
  - 0.0
  - 0.0
  - 0.0
  - 0.0
  - 1000000.0
  - 0.0
  - 0.0
  - 0.0
  - 0.0
  - 0.0
  - 0.0
  - 1000.0
twist:
  twist:
    linear:
      x: 0.5189999938011169
      y: 0.0
      z: 0.0
    angular:
      x: 0.0
      y: 0.0
      z: -0.5709999799728394
  covariance:
  - 0.001
  - 0.0
  - 0.0
  - 0.0
  - 0.0
  - 0.0
  - 0.0
  - 0.001
  - 0.0
  - 0.0
  - 0.0
  - 0.0
  - 0.0
  - 0.0
  - 1000000.0
  - 0.0
  - 0.0
  - 0.0
  - 0.0
  - 0.0
  - 0.0
  - 1000000.0
  - 0.0
  - 0.0
  - 0.0
  - 0.0
  - 0.0
  - 0.0
  - 1000000.0
  - 0.0
  - 0.0
  - 0.0
  - 0.0
  - 0.0
  - 0.0
  - 1000.0
---
header:
  stamp:
    sec: 1750425291
    nanosec: 110863624
  frame_id: odom_combined
child_frame_id: base_footprint
pose:
  pose:
    position:
      x: 5.149623394012451
      y: -1.6993229389190674
      z: -20.72589111328125
    orientation:
      x: -0.0
      y: 0.0
      z: 0.8064760152272401
      w: -0.5912668068335921
  covariance:
  - 0.001
  - 0.0
  - 0.0
  - 0.0
  - 0.0
  - 0.0
  - 0.0
  - 0.001
  - 0.0
  - 0.0
  - 0.0
  - 0.0
  - 0.0
  - 0.0
  - 1000000.0
  - 0.0
  - 0.0
  - 0.0
  - 0.0
  - 0.0
  - 0.0
  - 1000000.0
  - 0.0
  - 0.0
  - 0.0
  - 0.0
  - 0.0
  - 0.0
  - 1000000.0
  - 0.0
  - 0.0
  - 0.0
  - 0.0
  - 0.0
  - 0.0
  - 1000.0
twist:
  twist:
    linear:
      x: 0.4819999933242798
      y: 0.0
      z: 0.0
    angular:
      x: 0.0
      y: 0.0
      z: -0.6140000224113464
  covariance:
  - 0.001
  - 0.0
  - 0.0
  - 0.0
  - 0.0
  - 0.0
  - 0.0
  - 0.001
  - 0.0
  - 0.0
  - 0.0
  - 0.0
  - 0.0
  - 0.0
  - 1000000.0
  - 0.0
  - 0.0
  - 0.0
  - 0.0
  - 0.0
  - 0.0
  - 1000000.0
  - 0.0
  - 0.0
  - 0.0
  - 0.0
  - 0.0
  - 0.0
  - 1000000.0
  - 0.0
  - 0.0
  - 0.0
  - 0.0
  - 0.0
  - 0.0
  - 1000.0
---
header:
  stamp:
    sec: 1750425291
    nanosec: 160968776
  frame_id: odom_combined
child_frame_id: base_footprint
pose:
  pose:
    position:
      x: 5.142027378082275
      y: -1.7234059572219849
      z: -20.753698348999023
    orientation:
      x: -0.0
      y: 0.0
      z: 0.814618549183781
      w: -0.5799970856182916
  covariance:
  - 0.001
  - 0.0
  - 0.0
  - 0.0
  - 0.0
  - 0.0
  - 0.0
  - 0.001
  - 0.0
  - 0.0
  - 0.0
  - 0.0
  - 0.0
  - 0.0
  - 1000000.0
  - 0.0
  - 0.0
  - 0.0
  - 0.0
  - 0.0
  - 0.0
  - 1000000.0
  - 0.0
  - 0.0
  - 0.0
  - 0.0
  - 0.0
  - 0.0
  - 1000000.0
  - 0.0
  - 0.0
  - 0.0
  - 0.0
  - 0.0
  - 0.0
  - 1000.0
twist:
  twist:
    linear:
      x: 0.5040000081062317
      y: 0.0
      z: 0.0
    angular:
      x: 0.0
      y: 0.0
      z: -0.5550000071525574
  covariance:
  - 0.001
  - 0.0
  - 0.0
  - 0.0
  - 0.0
  - 0.0
  - 0.0
  - 0.001
  - 0.0
  - 0.0
  - 0.0
  - 0.0
  - 0.0
  - 0.0
  - 1000000.0
  - 0.0
  - 0.0
  - 0.0
  - 0.0
  - 0.0
  - 0.0
  - 1000000.0
  - 0.0
  - 0.0
  - 0.0
  - 0.0
  - 0.0
  - 0.0
  - 1000000.0
  - 0.0
  - 0.0
  - 0.0
  - 0.0
  - 0.0
  - 0.0
  - 1000.0
---
header:
  stamp:
    sec: 1750425291
    nanosec: 210628616
  frame_id: odom_combined
child_frame_id: base_footprint
pose:
  pose:
    position:
      x: 5.134048938751221
      y: -1.7464473247528076
      z: -20.78811264038086
    orientation:
      x: -0.0
      y: 0.0
      z: 0.8244775555070638
      w: -0.5658946549182953
  covariance:
  - 0.001
  - 0.0
  - 0.0
  - 0.0
  - 0.0
  - 0.0
  - 0.0
  - 0.001
  - 0.0
  - 0.0
  - 0.0
  - 0.0
  - 0.0
  - 0.0
  - 1000000.0
  - 0.0
  - 0.0
  - 0.0
  - 0.0
  - 0.0
  - 0.0
  - 1000000.0
  - 0.0
  - 0.0
  - 0.0
  - 0.0
  - 0.0
  - 0.0
  - 1000000.0
  - 0.0
  - 0.0
  - 0.0
  - 0.0
  - 0.0
  - 0.0
  - 1000.0
twist:
  twist:
    linear:
      x: 0.4909999966621399
      y: 0.0
      z: 0.0
    angular:
      x: 0.0
      y: 0.0
      z: -0.6930000185966492
  covariance:
  - 0.001
  - 0.0
  - 0.0
  - 0.0
  - 0.0
  - 0.0
  - 0.0
  - 0.001
  - 0.0
  - 0.0
  - 0.0
  - 0.0
  - 0.0
  - 0.0
  - 1000000.0
  - 0.0
  - 0.0
  - 0.0
  - 0.0
  - 0.0
  - 0.0
  - 1000000.0
  - 0.0
  - 0.0
  - 0.0
  - 0.0
  - 0.0
  - 0.0
  - 1000000.0
  - 0.0
  - 0.0
  - 0.0
  - 0.0
  - 0.0
  - 0.0
  - 1000.0
---
header:
  stamp:
    sec: 1750425291
    nanosec: 261469512
  frame_id: odom_combined
child_frame_id: base_footprint
pose:
  pose:
    position:
      x: 5.124585151672363
      y: -1.7710105180740356
      z: -20.80884552001953
    orientation:
      x: -0.0
      y: 0.0
      z: 0.8302994632734764
      w: -0.5573175049177775
  covariance:
  - 0.001
  - 0.0
  - 0.0
  - 0.0
  - 0.0
  - 0.0
  - 0.0
  - 0.001
  - 0.0
  - 0.0
  - 0.0
  - 0.0
  - 0.0
  - 0.0
  - 1000000.0
  - 0.0
  - 0.0
  - 0.0
  - 0.0
  - 0.0
  - 0.0
  - 1000000.0
  - 0.0
  - 0.0
  - 0.0
  - 0.0
  - 0.0
  - 0.0
  - 1000000.0
  - 0.0
  - 0.0
  - 0.0
  - 0.0
  - 0.0
  - 0.0
  - 1000.0
twist:
  twist:
    linear:
      x: 0.5180000066757202
      y: 0.0
      z: 0.0
    angular:
      x: 0.0
      y: 0.0
      z: -0.40799999237060547
  covariance:
  - 0.001
  - 0.0
  - 0.0
  - 0.0
  - 0.0
  - 0.0
  - 0.0
  - 0.001
  - 0.0
  - 0.0
  - 0.0
  - 0.0
  - 0.0
  - 0.0
  - 1000000.0
  - 0.0
  - 0.0
  - 0.0
  - 0.0
  - 0.0
  - 0.0
  - 1000000.0
  - 0.0
  - 0.0
  - 0.0
  - 0.0
  - 0.0
  - 0.0
  - 1000000.0
  - 0.0
  - 0.0
  - 0.0
  - 0.0
  - 0.0
  - 0.0
  - 1000.0
---
header:
  stamp:
    sec: 1750425291
    nanosec: 311007592
  frame_id: odom_combined
child_frame_id: base_footprint
pose:
  pose:
    position:
      x: 5.114841461181641
      y: -1.794816017150879
      z: -20.838136672973633
    orientation:
      x: -0.0
      y: 0.0
      z: 0.8383723625440582
      w: -0.5450979560797253
  covariance:
  - 0.001
  - 0.0
  - 0.0
  - 0.0
  - 0.0
  - 0.0
  - 0.0
  - 0.001
  - 0.0
  - 0.0
  - 0.0
  - 0.0
  - 0.0
  - 0.0
  - 1000000.0
  - 0.0
  - 0.0
  - 0.0
  - 0.0
  - 0.0
  - 0.0
  - 1000000.0
  - 0.0
  - 0.0
  - 0.0
  - 0.0
  - 0.0
  - 0.0
  - 1000000.0
  - 0.0
  - 0.0
  - 0.0
  - 0.0
  - 0.0
  - 0.0
  - 1000.0
twist:
  twist:
    linear:
      x: 0.5189999938011169
      y: 0.0
      z: 0.0
    angular:
      x: 0.0
      y: 0.0
      z: -0.5910000205039978
  covariance:
  - 0.001
  - 0.0
  - 0.0
  - 0.0
  - 0.0
  - 0.0
  - 0.0
  - 0.001
  - 0.0
  - 0.0
  - 0.0
  - 0.0
  - 0.0
  - 0.0
  - 1000000.0
  - 0.0
  - 0.0
  - 0.0
  - 0.0
  - 0.0
  - 0.0
  - 1000000.0
  - 0.0
  - 0.0
  - 0.0
  - 0.0
  - 0.0
  - 0.0
  - 1000000.0
  - 0.0
  - 0.0
  - 0.0
  - 0.0
  - 0.0
  - 0.0
  - 1000.0
---
header:
  stamp:
    sec: 1750425291
    nanosec: 360852232
  frame_id: odom_combined
child_frame_id: base_footprint
pose:
  pose:
    position:
      x: 5.105034351348877
      y: -1.8169080018997192
      z: -20.86998176574707
    orientation:
      x: -0.0
      y: 0.0
      z: 0.8469450703251632
      w: -0.5316804001013244
  covariance:
  - 0.001
  - 0.0
  - 0.0
  - 0.0
  - 0.0
  - 0.0
  - 0.0
  - 0.001
  - 0.0
  - 0.0
  - 0.0
  - 0.0
  - 0.0
  - 0.0
  - 1000000.0
  - 0.0
  - 0.0
  - 0.0
  - 0.0
  - 0.0
  - 0.0
  - 1000000.0
  - 0.0
  - 0.0
  - 0.0
  - 0.0
  - 0.0
  - 0.0
  - 1000000.0
  - 0.0
  - 0.0
  - 0.0
  - 0.0
  - 0.0
  - 0.0
  - 1000.0
twist:
  twist:
    linear:
      x: 0.48500001430511475
      y: 0.0
      z: 0.0
    angular:
      x: 0.0
      y: 0.0
      z: -0.6389999985694885
  covariance:
  - 0.001
  - 0.0
  - 0.0
  - 0.0
  - 0.0
  - 0.0
  - 0.0
  - 0.001
  - 0.0
  - 0.0
  - 0.0
  - 0.0
  - 0.0
  - 0.0
  - 1000000.0
  - 0.0
  - 0.0
  - 0.0
  - 0.0
  - 0.0
  - 0.0
  - 1000000.0
  - 0.0
  - 0.0
  - 0.0
  - 0.0
  - 0.0
  - 0.0
  - 1000000.0
  - 0.0
  - 0.0
  - 0.0
  - 0.0
  - 0.0
  - 0.0
  - 1000.0
---
header:
  stamp:
    sec: 1750425291
    nanosec: 410642632
  frame_id: odom_combined
child_frame_id: base_footprint
pose:
  pose:
    position:
      x: 5.093931198120117
      y: -1.8399146795272827
      z: -20.892988204956055
    orientation:
      x: -0.0
      y: 0.0
      z: 0.8530049368569097
      w: -0.5219028431592796
  covariance:
  - 0.001
  - 0.0
  - 0.0
  - 0.0
  - 0.0
  - 0.0
  - 0.0
  - 0.001
  - 0.0
  - 0.0
  - 0.0
  - 0.0
  - 0.0
  - 0.0
  - 1000000.0
  - 0.0
  - 0.0
  - 0.0
  - 0.0
  - 0.0
  - 0.0
  - 1000000.0
  - 0.0
  - 0.0
  - 0.0
  - 0.0
  - 0.0
  - 0.0
  - 1000000.0
  - 0.0
  - 0.0
  - 0.0
  - 0.0
  - 0.0
  - 0.0
  - 1000.0
twist:
  twist:
    linear:
      x: 0.5130000114440918
      y: 0.0
      z: 0.0
    angular:
      x: 0.0
      y: 0.0
      z: -0.4620000123977661
  covariance:
  - 0.001
  - 0.0
  - 0.0
  - 0.0
  - 0.0
  - 0.0
  - 0.0
  - 0.001
  - 0.0
  - 0.0
  - 0.0
  - 0.0
  - 0.0
  - 0.0
  - 1000000.0
  - 0.0
  - 0.0
  - 0.0
  - 0.0
  - 0.0
  - 0.0
  - 1000000.0
  - 0.0
  - 0.0
  - 0.0
  - 0.0
  - 0.0
  - 0.0
  - 1000000.0
  - 0.0
  - 0.0
  - 0.0
  - 0.0
  - 0.0
  - 0.0
  - 1000.0
---
header:
  stamp:
    sec: 1750425291
    nanosec: 461413704
  frame_id: odom_combined
child_frame_id: base_footprint
pose:
  pose:
    position:
      x: 5.08304500579834
      y: -1.8612061738967896
      z: -20.9345703125
    orientation:
      x: -0.0
      y: 0.0
      z: 0.8636707085071258
      w: -0.5040564524602372
  covariance:
  - 0.001
  - 0.0
  - 0.0
  - 0.0
  - 0.0
  - 0.0
  - 0.0
  - 0.001
  - 0.0
  - 0.0
  - 0.0
  - 0.0
  - 0.0
  - 0.0
  - 1000000.0
  - 0.0
  - 0.0
  - 0.0
  - 0.0
  - 0.0
  - 0.0
  - 1000000.0
  - 0.0
  - 0.0
  - 0.0
  - 0.0
  - 0.0
  - 0.0
  - 1000000.0
  - 0.0
  - 0.0
  - 0.0
  - 0.0
  - 0.0
  - 0.0
  - 1000.0
twist:
  twist:
    linear:
      x: 0.47099998593330383
      y: 0.0
      z: 0.0
    angular:
      x: 0.0
      y: 0.0
      z: -0.8190000057220459
  covariance:
  - 0.001
  - 0.0
  - 0.0
  - 0.0
  - 0.0
  - 0.0
  - 0.0
  - 0.001
  - 0.0
  - 0.0
  - 0.0
  - 0.0
  - 0.0
  - 0.0
  - 1000000.0
  - 0.0
  - 0.0
  - 0.0
  - 0.0
  - 0.0
  - 0.0
  - 1000000.0
  - 0.0
  - 0.0
  - 0.0
  - 0.0
  - 0.0
  - 0.0
  - 1000000.0
  - 0.0
  - 0.0
  - 0.0
  - 0.0
  - 0.0
  - 0.0
  - 1000.0
---
header:
  stamp:
    sec: 1750425291
    nanosec: 510608584
  frame_id: odom_combined
child_frame_id: base_footprint
pose:
  pose:
    position:
      x: 5.070728302001953
      y: -1.8830090761184692
      z: -20.954544067382812
    orientation:
      x: -0.0
      y: 0.0
      z: 0.8686615049265796
      w: -0.49540608581111517
  covariance:
  - 0.001
  - 0.0
  - 0.0
  - 0.0
  - 0.0
  - 0.0
  - 0.0
  - 0.001
  - 0.0
  - 0.0
  - 0.0
  - 0.0
  - 0.0
  - 0.0
  - 1000000.0
  - 0.0
  - 0.0
  - 0.0
  - 0.0
  - 0.0
  - 0.0
  - 1000000.0
  - 0.0
  - 0.0
  - 0.0
  - 0.0
  - 0.0
  - 0.0
  - 1000000.0
  - 0.0
  - 0.0
  - 0.0
  - 0.0
  - 0.0
  - 0.0
  - 1000.0
twist:
  twist:
    linear:
      x: 0.5090000033378601
      y: 0.0
      z: 0.0
    angular:
      x: 0.0
      y: 0.0
      z: -0.4059999883174896
  covariance:
  - 0.001
  - 0.0
  - 0.0
  - 0.0
  - 0.0
  - 0.0
  - 0.0
  - 0.001
  - 0.0
  - 0.0
  - 0.0
  - 0.0
  - 0.0
  - 0.0
  - 1000000.0
  - 0.0
  - 0.0
  - 0.0
  - 0.0
  - 0.0
  - 0.0
  - 1000000.0
  - 0.0
  - 0.0
  - 0.0
  - 0.0
  - 0.0
  - 0.0
  - 1000000.0
  - 0.0
  - 0.0
  - 0.0
  - 0.0
  - 0.0
  - 0.0
  - 1000.0
---
header:
  stamp:
    sec: 1750425291
    nanosec: 560987432
  frame_id: odom_combined
child_frame_id: base_footprint
pose:
  pose:
    position:
      x: 5.057569980621338
      y: -1.9052526950836182
      z: -20.978322982788086
    orientation:
      x: -0.0
      y: 0.0
      z: 0.87449007993384
      w: -0.48504340022033726
  covariance:
  - 0.001
  - 0.0
  - 0.0
  - 0.0
  - 0.0
  - 0.0
  - 0.0
  - 0.001
  - 0.0
  - 0.0
  - 0.0
  - 0.0
  - 0.0
  - 0.0
  - 1000000.0
  - 0.0
  - 0.0
  - 0.0
  - 0.0
  - 0.0
  - 0.0
  - 1000000.0
  - 0.0
  - 0.0
  - 0.0
  - 0.0
  - 0.0
  - 0.0
  - 1000000.0
  - 0.0
  - 0.0
  - 0.0
  - 0.0
  - 0.0
  - 0.0
  - 1000.0
twist:
  twist:
    linear:
      x: 0.5130000114440918
      y: 0.0
      z: 0.0
    angular:
      x: 0.0
      y: 0.0
      z: -0.47200000286102295
  covariance:
  - 0.001
  - 0.0
  - 0.0
  - 0.0
  - 0.0
  - 0.0
  - 0.0
  - 0.001
  - 0.0
  - 0.0
  - 0.0
  - 0.0
  - 0.0
  - 0.0
  - 1000000.0
  - 0.0
  - 0.0
  - 0.0
  - 0.0
  - 0.0
  - 0.0
  - 1000000.0
  - 0.0
  - 0.0
  - 0.0
  - 0.0
  - 0.0
  - 0.0
  - 1000000.0
  - 0.0
  - 0.0
  - 0.0
  - 0.0
  - 0.0
  - 0.0
  - 1000.0
---
header:
  stamp:
    sec: 1750425291
    nanosec: 610606952
  frame_id: odom_combined
child_frame_id: base_footprint
pose:
  pose:
    position:
      x: 5.044749736785889
      y: -1.925794005393982
      z: -21.01270866394043
    orientation:
      x: -0.0
      y: 0.0
      z: 0.8826996992280463
      w: -0.4699374862497316
  covariance:
  - 0.001
  - 0.0
  - 0.0
  - 0.0
  - 0.0
  - 0.0
  - 0.0
  - 0.001
  - 0.0
  - 0.0
  - 0.0
  - 0.0
  - 0.0
  - 0.0
  - 1000000.0
  - 0.0
  - 0.0
  - 0.0
  - 0.0
  - 0.0
  - 0.0
  - 1000000.0
  - 0.0
  - 0.0
  - 0.0
  - 0.0
  - 0.0
  - 0.0
  - 1000000.0
  - 0.0
  - 0.0
  - 0.0
  - 0.0
  - 0.0
  - 0.0
  - 1000.0
twist:
  twist:
    linear:
      x: 0.4880000054836273
      y: 0.0
      z: 0.0
    angular:
      x: 0.0
      y: 0.0
      z: -0.6930000185966492
  covariance:
  - 0.001
  - 0.0
  - 0.0
  - 0.0
  - 0.0
  - 0.0
  - 0.0
  - 0.001
  - 0.0
  - 0.0
  - 0.0
  - 0.0
  - 0.0
  - 0.0
  - 1000000.0
  - 0.0
  - 0.0
  - 0.0
  - 0.0
  - 0.0
  - 0.0
  - 1000000.0
  - 0.0
  - 0.0
  - 0.0
  - 0.0
  - 0.0
  - 0.0
  - 1000000.0
  - 0.0
  - 0.0
  - 0.0
  - 0.0
  - 0.0
  - 0.0
  - 1000.0
---
header:
  stamp:
    sec: 1750425291
    nanosec: 660718472
  frame_id: odom_combined
child_frame_id: base_footprint
pose:
  pose:
    position:
      x: 5.03067684173584
      y: -1.9467054605484009
      z: -21.033754348754883
    orientation:
      x: -0.0
      y: 0.0
      z: 0.8875958157644099
      w: -0.46062312994194254
  covariance:
  - 0.001
  - 0.0
  - 0.0
  - 0.0
  - 0.0
  - 0.0
  - 0.0
  - 0.001
  - 0.0
  - 0.0
  - 0.0
  - 0.0
  - 0.0
  - 0.0
  - 1000000.0
  - 0.0
  - 0.0
  - 0.0
  - 0.0
  - 0.0
  - 0.0
  - 1000000.0
  - 0.0
  - 0.0
  - 0.0
  - 0.0
  - 0.0
  - 0.0
  - 1000000.0
  - 0.0
  - 0.0
  - 0.0
  - 0.0
  - 0.0
  - 0.0
  - 1000.0
twist:
  twist:
    linear:
      x: 0.503000020980835
      y: 0.0
      z: 0.0
    angular:
      x: 0.0
      y: 0.0
      z: -0.41999998688697815
  covariance:
  - 0.001
  - 0.0
  - 0.0
  - 0.0
  - 0.0
  - 0.0
  - 0.0
  - 0.001
  - 0.0
  - 0.0
  - 0.0
  - 0.0
  - 0.0
  - 0.0
  - 1000000.0
  - 0.0
  - 0.0
  - 0.0
  - 0.0
  - 0.0
  - 0.0
  - 1000000.0
  - 0.0
  - 0.0
  - 0.0
  - 0.0
  - 0.0
  - 0.0
  - 1000000.0
  - 0.0
  - 0.0
  - 0.0
  - 0.0
  - 0.0
  - 0.0
  - 1000.0
---
header:
  stamp:
    sec: 1750425291
    nanosec: 709946184
  frame_id: odom_combined
child_frame_id: base_footprint
pose:
  pose:
    position:
      x: 5.017470836639404
      y: -1.9654638767242432
      z: -21.070873260498047
    orientation:
      x: -0.0
      y: 0.0
      z: 0.8959913763313121
      w: -0.4440714509399598
  covariance:
  - 0.001
  - 0.0
  - 0.0
  - 0.0
  - 0.0
  - 0.0
  - 0.0
  - 0.001
  - 0.0
  - 0.0
  - 0.0
  - 0.0
  - 0.0
  - 0.0
  - 1000000.0
  - 0.0
  - 0.0
  - 0.0
  - 0.0
  - 0.0
  - 0.0
  - 1000000.0
  - 0.0
  - 0.0
  - 0.0
  - 0.0
  - 0.0
  - 0.0
  - 1000000.0
  - 0.0
  - 0.0
  - 0.0
  - 0.0
  - 0.0
  - 0.0
  - 1000.0
twist:
  twist:
    linear:
      x: 0.4659999907016754
      y: 0.0
      z: 0.0
    angular:
      x: 0.0
      y: 0.0
      z: -0.7540000081062317
  covariance:
  - 0.001
  - 0.0
  - 0.0
  - 0.0
  - 0.0
  - 0.0
  - 0.0
  - 0.001
  - 0.0
  - 0.0
  - 0.0
  - 0.0
  - 0.0
  - 0.0
  - 1000000.0
  - 0.0
  - 0.0
  - 0.0
  - 0.0
  - 0.0
  - 0.0
  - 1000000.0
  - 0.0
  - 0.0
  - 0.0
  - 0.0
  - 0.0
  - 0.0
  - 1000000.0
  - 0.0
  - 0.0
  - 0.0
  - 0.0
  - 0.0
  - 0.0
  - 1000.0
---
header:
  stamp:
    sec: 1750425291
    nanosec: 760931112
  frame_id: odom_combined
child_frame_id: base_footprint
pose:
  pose:
    position:
      x: 5.002928256988525
      y: -1.9845727682113647
      z: -21.098711013793945
    orientation:
      x: -0.0
      y: 0.0
      z: 0.9020853614026827
      w: -0.4315576447509548
  covariance:
  - 0.001
  - 0.0
  - 0.0
  - 0.0
  - 0.0
  - 0.0
  - 0.0
  - 0.001
  - 0.0
  - 0.0
  - 0.0
  - 0.0
  - 0.0
  - 0.0
  - 1000000.0
  - 0.0
  - 0.0
  - 0.0
  - 0.0
  - 0.0
  - 0.0
  - 1000000.0
  - 0.0
  - 0.0
  - 0.0
  - 0.0
  - 0.0
  - 0.0
  - 1000000.0
  - 0.0
  - 0.0
  - 0.0
  - 0.0
  - 0.0
  - 0.0
  - 1000.0
twist:
  twist:
    linear:
      x: 0.47099998593330383
      y: 0.0
      z: 0.0
    angular:
      x: 0.0
      y: 0.0
      z: -0.5460000038146973
  covariance:
  - 0.001
  - 0.0
  - 0.0
  - 0.0
  - 0.0
  - 0.0
  - 0.0
  - 0.001
  - 0.0
  - 0.0
  - 0.0
  - 0.0
  - 0.0
  - 0.0
  - 1000000.0
  - 0.0
  - 0.0
  - 0.0
  - 0.0
  - 0.0
  - 0.0
  - 1000000.0
  - 0.0
  - 0.0
  - 0.0
  - 0.0
  - 0.0
  - 0.0
  - 1000000.0
  - 0.0
  - 0.0
  - 0.0
  - 0.0
  - 0.0
  - 0.0
  - 1000.0
---
header:
  stamp:
    sec: 1750425291
    nanosec: 810449320
  frame_id: odom_combined
child_frame_id: base_footprint
pose:
  pose:
    position:
      x: 4.989099979400635
      y: -2.00173020362854
      z: -21.119163513183594
    orientation:
      x: -0.0
      y: 0.0
      z: 0.9064513328056856
      w: -0.42231029025444816
  covariance:
  - 0.001
  - 0.0
  - 0.0
  - 0.0
  - 0.0
  - 0.0
  - 0.0
  - 0.001
  - 0.0
  - 0.0
  - 0.0
  - 0.0
  - 0.0
  - 0.0
  - 1000000.0
  - 0.0
  - 0.0
  - 0.0
  - 0.0
  - 0.0
  - 0.0
  - 1000000.0
  - 0.0
  - 0.0
  - 0.0
  - 0.0
  - 0.0
  - 0.0
  - 1000000.0
  - 0.0
  - 0.0
  - 0.0
  - 0.0
  - 0.0
  - 0.0
  - 1000.0
twist:
  twist:
    linear:
      x: 0.4449999928474426
      y: 0.0
      z: 0.0
    angular:
      x: 0.0
      y: 0.0
      z: -0.4129999876022339
  covariance:
  - 0.001
  - 0.0
  - 0.0
  - 0.0
  - 0.0
  - 0.0
  - 0.0
  - 0.001
  - 0.0
  - 0.0
  - 0.0
  - 0.0
  - 0.0
  - 0.0
  - 1000000.0
  - 0.0
  - 0.0
  - 0.0
  - 0.0
  - 0.0
  - 0.0
  - 1000000.0
  - 0.0
  - 0.0
  - 0.0
  - 0.0
  - 0.0
  - 0.0
  - 1000000.0
  - 0.0
  - 0.0
  - 0.0
  - 0.0
  - 0.0
  - 0.0
  - 1000.0
---
header:
  stamp:
    sec: 1750425291
    nanosec: 860944424
  frame_id: odom_combined
child_frame_id: base_footprint
pose:
  pose:
    position:
      x: 4.975324630737305
      y: -2.018124580383301
      z: -21.14249610900879
    orientation:
      x: -0.0
      y: 0.0
      z: 0.9113163342560525
      w: -0.4117068604214785
  covariance:
  - 0.001
  - 0.0
  - 0.0
  - 0.0
  - 0.0
  - 0.0
  - 0.0
  - 0.001
  - 0.0
  - 0.0
  - 0.0
  - 0.0
  - 0.0
  - 0.0
  - 1000000.0
  - 0.0
  - 0.0
  - 0.0
  - 0.0
  - 0.0
  - 0.0
  - 1000000.0
  - 0.0
  - 0.0
  - 0.0
  - 0.0
  - 0.0
  - 0.0
  - 1000000.0
  - 0.0
  - 0.0
  - 0.0
  - 0.0
  - 0.0
  - 0.0
  - 1000.0
twist:
  twist:
    linear:
      x: 0.42399999499320984
      y: 0.0
      z: 0.0
    angular:
      x: 0.0
      y: 0.0
      z: -0.4620000123977661
  covariance:
  - 0.001
  - 0.0
  - 0.0
  - 0.0
  - 0.0
  - 0.0
  - 0.0
  - 0.001
  - 0.0
  - 0.0
  - 0.0
  - 0.0
  - 0.0
  - 0.0
  - 1000000.0
  - 0.0
  - 0.0
  - 0.0
  - 0.0
  - 0.0
  - 0.0
  - 1000000.0
  - 0.0
  - 0.0
  - 0.0
  - 0.0
  - 0.0
  - 0.0
  - 1000000.0
  - 0.0
  - 0.0
  - 0.0
  - 0.0
  - 0.0
  - 0.0
  - 1000.0
---
header:
  stamp:
    sec: 1750425291
    nanosec: 910039592
  frame_id: odom_combined
child_frame_id: base_footprint
pose:
  pose:
    position:
      x: 4.962930679321289
      y: -2.0321948528289795
      z: -21.155012130737305
    orientation:
      x: -0.0
      y: 0.0
      z: 0.9138749386987445
      w: -0.40599580837536503
  covariance:
  - 0.001
  - 0.0
  - 0.0
  - 0.0
  - 0.0
  - 0.0
  - 0.0
  - 0.001
  - 0.0
  - 0.0
  - 0.0
  - 0.0
  - 0.0
  - 0.0
  - 1000000.0
  - 0.0
  - 0.0
  - 0.0
  - 0.0
  - 0.0
  - 0.0
  - 1000000.0
  - 0.0
  - 0.0
  - 0.0
  - 0.0
  - 0.0
  - 0.0
  - 1000000.0
  - 0.0
  - 0.0
  - 0.0
  - 0.0
  - 0.0
  - 0.0
  - 1000.0
twist:
  twist:
    linear:
      x: 0.38199999928474426
      y: 0.0
      z: 0.0
    angular:
      x: 0.0
      y: 0.0
      z: -0.2549999952316284
  covariance:
  - 0.001
  - 0.0
  - 0.0
  - 0.0
  - 0.0
  - 0.0
  - 0.0
  - 0.001
  - 0.0
  - 0.0
  - 0.0
  - 0.0
  - 0.0
  - 0.0
  - 1000000.0
  - 0.0
  - 0.0
  - 0.0
  - 0.0
  - 0.0
  - 0.0
  - 1000000.0
  - 0.0
  - 0.0
  - 0.0
  - 0.0
  - 0.0
  - 0.0
  - 1000000.0
  - 0.0
  - 0.0
  - 0.0
  - 0.0
  - 0.0
  - 0.0
  - 1000.0
---
header:
  stamp:
    sec: 1750425291
    nanosec: 960584712
  frame_id: odom_combined
child_frame_id: base_footprint
pose:
  pose:
    position:
      x: 4.951817512512207
      y: -2.04449725151062
      z: -21.170631408691406
    orientation:
      x: -0.0
      y: 0.0
      z: 0.9170177184729997
      w: -0.39884646670940216
  covariance:
  - 0.001
  - 0.0
  - 0.0
  - 0.0
  - 0.0
  - 0.0
  - 0.0
  - 0.001
  - 0.0
  - 0.0
  - 0.0
  - 0.0
  - 0.0
  - 0.0
  - 1000000.0
  - 0.0
  - 0.0
  - 0.0
  - 0.0
  - 0.0
  - 0.0
  - 1000000.0
  - 0.0
  - 0.0
  - 0.0
  - 0.0
  - 0.0
  - 0.0
  - 1000000.0
  - 0.0
  - 0.0
  - 0.0
  - 0.0
  - 0.0
  - 0.0
  - 1000.0
twist:
  twist:
    linear:
      x: 0.328000009059906
      y: 0.0
      z: 0.0
    angular:
      x: 0.0
      y: 0.0
      z: -0.3089999854564667
  covariance:
  - 0.001
  - 0.0
  - 0.0
  - 0.0
  - 0.0
  - 0.0
  - 0.0
  - 0.001
  - 0.0
  - 0.0
  - 0.0
  - 0.0
  - 0.0
  - 0.0
  - 1000000.0
  - 0.0
  - 0.0
  - 0.0
  - 0.0
  - 0.0
  - 0.0
  - 1000000.0
  - 0.0
  - 0.0
  - 0.0
  - 0.0
  - 0.0
  - 0.0
  - 1000000.0
  - 0.0
  - 0.0
  - 0.0
  - 0.0
  - 0.0
  - 0.0
  - 1000.0
---
header:
  stamp:
    sec: 1750425292
    nanosec: 11353704
  frame_id: odom_combined
child_frame_id: base_footprint
pose:
  pose:
    position:
      x: 4.942539691925049
      y: -2.054450750350952
      z: -21.185152053833008
    orientation:
      x: -0.0
      y: 0.0
      z: 0.9198892780943394
      w: -0.3921781687537887
  covariance:
  - 0.001
  - 0.0
  - 0.0
  - 0.0
  - 0.0
  - 0.0
  - 0.0
  - 0.001
  - 0.0
  - 0.0
  - 0.0
  - 0.0
  - 0.0
  - 0.0
  - 1000000.0
  - 0.0
  - 0.0
  - 0.0
  - 0.0
  - 0.0
  - 0.0
  - 1000000.0
  - 0.0
  - 0.0
  - 0.0
  - 0.0
  - 0.0
  - 0.0
  - 1000000.0
  - 0.0
  - 0.0
  - 0.0
  - 0.0
  - 0.0
  - 0.0
  - 1000.0
twist:
  twist:
    linear:
      x: 0.2680000066757202
      y: 0.0
      z: 0.0
    angular:
      x: 0.0
      y: 0.0
      z: -0.28600001335144043
  covariance:
  - 0.001
  - 0.0
  - 0.0
  - 0.0
  - 0.0
  - 0.0
  - 0.0
  - 0.001
  - 0.0
  - 0.0
  - 0.0
  - 0.0
  - 0.0
  - 0.0
  - 1000000.0
  - 0.0
  - 0.0
  - 0.0
  - 0.0
  - 0.0
  - 0.0
  - 1000000.0
  - 0.0
  - 0.0
  - 0.0
  - 0.0
  - 0.0
  - 0.0
  - 1000000.0
  - 0.0
  - 0.0
  - 0.0
  - 0.0
  - 0.0
  - 0.0
  - 1000.0
---
header:
  stamp:
    sec: 1750425292
    nanosec: 60695592
  frame_id: odom_combined
child_frame_id: base_footprint
pose:
  pose:
    position:
      x: 4.935399532318115
      y: -2.0618910789489746
      z: -21.20059585571289
    orientation:
      x: -0.0
      y: 0.0
      z: 0.9228901836390537
      w: -0.3850632531710519
  covariance:
  - 0.001
  - 0.0
  - 0.0
  - 0.0
  - 0.0
  - 0.0
  - 0.0
  - 0.001
  - 0.0
  - 0.0
  - 0.0
  - 0.0
  - 0.0
  - 0.0
  - 1000000.0
  - 0.0
  - 0.0
  - 0.0
  - 0.0
  - 0.0
  - 0.0
  - 1000000.0
  - 0.0
  - 0.0
  - 0.0
  - 0.0
  - 0.0
  - 0.0
  - 1000000.0
  - 0.0
  - 0.0
  - 0.0
  - 0.0
  - 0.0
  - 0.0
  - 1000.0
twist:
  twist:
    linear:
      x: 0.20900000631809235
      y: 0.0
      z: 0.0
    angular:
      x: 0.0
      y: 0.0
      z: -0.31299999356269836
  covariance:
  - 0.001
  - 0.0
  - 0.0
  - 0.0
  - 0.0
  - 0.0
  - 0.0
  - 0.001
  - 0.0
  - 0.0
  - 0.0
  - 0.0
  - 0.0
  - 0.0
  - 1000000.0
  - 0.0
  - 0.0
  - 0.0
  - 0.0
  - 0.0
  - 0.0
  - 1000000.0
  - 0.0
  - 0.0
  - 0.0
  - 0.0
  - 0.0
  - 0.0
  - 1000000.0
  - 0.0
  - 0.0
  - 0.0
  - 0.0
  - 0.0
  - 0.0
  - 1000.0
---
header:
  stamp:
    sec: 1750425292
    nanosec: 111509480
  frame_id: odom_combined
child_frame_id: base_footprint
pose:
  pose:
    position:
      x: 4.929322719573975
      y: -2.068030595779419
      z: -21.20953941345215
    orientation:
      x: -0.0
      y: 0.0
      z: 0.9246028682065276
      w: -0.38093245609197257
  covariance:
  - 0.001
  - 0.0
  - 0.0
  - 0.0
  - 0.0
  - 0.0
  - 0.0
  - 0.001
  - 0.0
  - 0.0
  - 0.0
  - 0.0
  - 0.0
  - 0.0
  - 1000000.0
  - 0.0
  - 0.0
  - 0.0
  - 0.0
  - 0.0
  - 0.0
  - 1000000.0
  - 0.0
  - 0.0
  - 0.0
  - 0.0
  - 0.0
  - 0.0
  - 1000000.0
  - 0.0
  - 0.0
  - 0.0
  - 0.0
  - 0.0
  - 0.0
  - 1000.0
twist:
  twist:
    linear:
      x: 0.17000000178813934
      y: 0.0
      z: 0.0
    angular:
      x: 0.0
      y: 0.0
      z: -0.17599999904632568
  covariance:
  - 0.001
  - 0.0
  - 0.0
  - 0.0
  - 0.0
  - 0.0
  - 0.0
  - 0.001
  - 0.0
  - 0.0
  - 0.0
  - 0.0
  - 0.0
  - 0.0
  - 1000000.0
  - 0.0
  - 0.0
  - 0.0
  - 0.0
  - 0.0
  - 0.0
  - 1000000.0
  - 0.0
  - 0.0
  - 0.0
  - 0.0
  - 0.0
  - 0.0
  - 1000000.0
  - 0.0
  - 0.0
  - 0.0
  - 0.0
  - 0.0
  - 0.0
  - 1000.0
---
header:
  stamp:
    sec: 1750425292
    nanosec: 160956232
  frame_id: odom_combined
child_frame_id: base_footprint
pose:
  pose:
    position:
      x: 4.925496578216553
      y: -2.0718278884887695
      z: -21.2192325592041
    orientation:
      x: -0.0
      y: 0.0
      z: 0.9264382187867731
      w: -0.376446844549388
  covariance:
  - 0.001
  - 0.0
  - 0.0
  - 0.0
  - 0.0
  - 0.0
  - 0.0
  - 0.001
  - 0.0
  - 0.0
  - 0.0
  - 0.0
  - 0.0
  - 0.0
  - 1000000.0
  - 0.0
  - 0.0
  - 0.0
  - 0.0
  - 0.0
  - 0.0
  - 1000000.0
  - 0.0
  - 0.0
  - 0.0
  - 0.0
  - 0.0
  - 0.0
  - 1000000.0
  - 0.0
  - 0.0
  - 0.0
  - 0.0
  - 0.0
  - 0.0
  - 1000.0
twist:
  twist:
    linear:
      x: 0.10899999737739563
      y: 0.0
      z: 0.0
    angular:
      x: 0.0
      y: 0.0
      z: -0.19599999487400055
  covariance:
  - 0.001
  - 0.0
  - 0.0
  - 0.0
  - 0.0
  - 0.0
  - 0.0
  - 0.001
  - 0.0
  - 0.0
  - 0.0
  - 0.0
  - 0.0
  - 0.0
  - 1000000.0
  - 0.0
  - 0.0
  - 0.0
  - 0.0
  - 0.0
  - 0.0
  - 1000000.0
  - 0.0
  - 0.0
  - 0.0
  - 0.0
  - 0.0
  - 0.0
  - 1000000.0
  - 0.0
  - 0.0
  - 0.0
  - 0.0
  - 0.0
  - 0.0
  - 1000.0
---
header:
  stamp:
    sec: 1750425292
    nanosec: 210968040
  frame_id: odom_combined
child_frame_id: base_footprint
pose:
  pose:
    position:
      x: 4.92252254486084
      y: -2.0747227668762207
      z: -21.225082397460938
    orientation:
      x: -0.0
      y: 0.0
      z: 0.9275353308862272
      w: -0.3737354812668675
  covariance:
  - 0.001
  - 0.0
  - 0.0
  - 0.0
  - 0.0
  - 0.0
  - 0.0
  - 0.001
  - 0.0
  - 0.0
  - 0.0
  - 0.0
  - 0.0
  - 0.0
  - 1000000.0
  - 0.0
  - 0.0
  - 0.0
  - 0.0
  - 0.0
  - 0.0
  - 1000000.0
  - 0.0
  - 0.0
  - 0.0
  - 0.0
  - 0.0
  - 0.0
  - 1000000.0
  - 0.0
  - 0.0
  - 0.0
  - 0.0
  - 0.0
  - 0.0
  - 1000.0
twist:
  twist:
    linear:
      x: 0.08299999684095383
      y: 0.0
      z: 0.0
    angular:
      x: 0.0
      y: 0.0
      z: -0.11699999868869781
  covariance:
  - 0.001
  - 0.0
  - 0.0
  - 0.0
  - 0.0
  - 0.0
  - 0.0
  - 0.001
  - 0.0
  - 0.0
  - 0.0
  - 0.0
  - 0.0
  - 0.0
  - 1000000.0
  - 0.0
  - 0.0
  - 0.0
  - 0.0
  - 0.0
  - 0.0
  - 1000000.0
  - 0.0
  - 0.0
  - 0.0
  - 0.0
  - 0.0
  - 0.0
  - 1000000.0
  - 0.0
  - 0.0
  - 0.0
  - 0.0
  - 0.0
  - 0.0
  - 1000.0
---
header:
  stamp:
    sec: 1750425292
    nanosec: 261037064
  frame_id: odom_combined
child_frame_id: base_footprint
pose:
  pose:
    position:
      x: 4.92046594619751
      y: -2.0767014026641846
      z: -21.227436065673828
    orientation:
      x: -0.0
      y: 0.0
      z: 0.9279745131562217
      w: -0.37264366750620254
  covariance:
  - 0.001
  - 0.0
  - 0.0
  - 0.0
  - 0.0
  - 0.0
  - 0.0
  - 0.001
  - 0.0
  - 0.0
  - 0.0
  - 0.0
  - 0.0
  - 0.0
  - 1000000.0
  - 0.0
  - 0.0
  - 0.0
  - 0.0
  - 0.0
  - 0.0
  - 1000000.0
  - 0.0
  - 0.0
  - 0.0
  - 0.0
  - 0.0
  - 0.0
  - 1000000.0
  - 0.0
  - 0.0
  - 0.0
  - 0.0
  - 0.0
  - 0.0
  - 1000.0
twist:
  twist:
    linear:
      x: 0.05700000002980232
      y: 0.0
      z: 0.0
    angular:
      x: 0.0
      y: 0.0
      z: -0.04699999839067459
  covariance:
  - 0.001
  - 0.0
  - 0.0
  - 0.0
  - 0.0
  - 0.0
  - 0.0
  - 0.001
  - 0.0
  - 0.0
  - 0.0
  - 0.0
  - 0.0
  - 0.0
  - 1000000.0
  - 0.0
  - 0.0
  - 0.0
  - 0.0
  - 0.0
  - 0.0
  - 1000000.0
  - 0.0
  - 0.0
  - 0.0
  - 0.0
  - 0.0
  - 0.0
  - 1000000.0
  - 0.0
  - 0.0
  - 0.0
  - 0.0
  - 0.0
  - 0.0
  - 1000.0
---
header:
  stamp:
    sec: 1750425292
    nanosec: 312141224
  frame_id: odom_combined
child_frame_id: base_footprint
pose:
  pose:
    position:
      x: 4.918952465057373
      y: -2.078150510787964
      z: -21.229581832885742
    orientation:
      x: -0.0
      y: 0.0
      z: 0.9283737822752083
      w: -0.3716478445841226
  covariance:
  - 0.001
  - 0.0
  - 0.0
  - 0.0
  - 0.0
  - 0.0
  - 0.0
  - 0.001
  - 0.0
  - 0.0
  - 0.0
  - 0.0
  - 0.0
  - 0.0
  - 1000000.0
  - 0.0
  - 0.0
  - 0.0
  - 0.0
  - 0.0
  - 0.0
  - 1000000.0
  - 0.0
  - 0.0
  - 0.0
  - 0.0
  - 0.0
  - 0.0
  - 1000000.0
  - 0.0
  - 0.0
  - 0.0
  - 0.0
  - 0.0
  - 0.0
  - 1000.0
twist:
  twist:
    linear:
      x: 0.04100000113248825
      y: 0.0
      z: 0.0
    angular:
      x: 0.0
      y: 0.0
      z: -0.041999999433755875
  covariance:
  - 0.001
  - 0.0
  - 0.0
  - 0.0
  - 0.0
  - 0.0
  - 0.0
  - 0.001
  - 0.0
  - 0.0
  - 0.0
  - 0.0
  - 0.0
  - 0.0
  - 1000000.0
  - 0.0
  - 0.0
  - 0.0
  - 0.0
  - 0.0
  - 0.0
  - 1000000.0
  - 0.0
  - 0.0
  - 0.0
  - 0.0
  - 0.0
  - 0.0
  - 1000000.0
  - 0.0
  - 0.0
  - 0.0
  - 0.0
  - 0.0
  - 0.0
  - 1000.0
---
header:
  stamp:
    sec: 1750425292
    nanosec: 359636456
  frame_id: odom_combined
child_frame_id: base_footprint
pose:
  pose:
    position:
      x: 4.917474269866943
      y: -2.079559803009033
      z: -21.231481552124023
    orientation:
      x: -0.0
      y: 0.0
      z: 0.9287263766973988
      w: -0.37076585229295517
  covariance:
  - 0.001
  - 0.0
  - 0.0
  - 0.0
  - 0.0
  - 0.0
  - 0.0
  - 0.001
  - 0.0
  - 0.0
  - 0.0
  - 0.0
  - 0.0
  - 0.0
  - 1000000.0
  - 0.0
  - 0.0
  - 0.0
  - 0.0
  - 0.0
  - 0.0
  - 1000000.0
  - 0.0
  - 0.0
  - 0.0
  - 0.0
  - 0.0
  - 0.0
  - 1000000.0
  - 0.0
  - 0.0
  - 0.0
  - 0.0
  - 0.0
  - 0.0
  - 1000.0
twist:
  twist:
    linear:
      x: 0.0430000014603138
      y: 0.0
      z: 0.0
    angular:
      x: 0.0
      y: 0.0
      z: -0.03999999910593033
  covariance:
  - 0.001
  - 0.0
  - 0.0
  - 0.0
  - 0.0
  - 0.0
  - 0.0
  - 0.001
  - 0.0
  - 0.0
  - 0.0
  - 0.0
  - 0.0
  - 0.0
  - 1000000.0
  - 0.0
  - 0.0
  - 0.0
  - 0.0
  - 0.0
  - 0.0
  - 1000000.0
  - 0.0
  - 0.0
  - 0.0
  - 0.0
  - 0.0
  - 0.0
  - 1000000.0
  - 0.0
  - 0.0
  - 0.0
  - 0.0
  - 0.0
  - 0.0
  - 1000.0
---
header:
  stamp:
    sec: 1750425292
    nanosec: 410569768
  frame_id: odom_combined
child_frame_id: base_footprint
pose:
  pose:
    position:
      x: 4.915258407592773
      y: -2.0816643238067627
      z: -21.23744010925293
    orientation:
      x: -0.0
      y: 0.0
      z: 0.9298268680880526
      w: -0.3679972763235662
  covariance:
  - 0.001
  - 0.0
  - 0.0
  - 0.0
  - 0.0
  - 0.0
  - 0.0
  - 0.001
  - 0.0
  - 0.0
  - 0.0
  - 0.0
  - 0.0
  - 0.0
  - 1000000.0
  - 0.0
  - 0.0
  - 0.0
  - 0.0
  - 0.0
  - 0.0
  - 1000000.0
  - 0.0
  - 0.0
  - 0.0
  - 0.0
  - 0.0
  - 0.0
  - 1000000.0
  - 0.0
  - 0.0
  - 0.0
  - 0.0
  - 0.0
  - 0.0
  - 1000.0
twist:
  twist:
    linear:
      x: 0.05999999865889549
      y: 0.0
      z: 0.0
    angular:
      x: 0.0
      y: 0.0
      z: -0.11699999868869781
  covariance:
  - 0.001
  - 0.0
  - 0.0
  - 0.0
  - 0.0
  - 0.0
  - 0.0
  - 0.001
  - 0.0
  - 0.0
  - 0.0
  - 0.0
  - 0.0
  - 0.0
  - 1000000.0
  - 0.0
  - 0.0
  - 0.0
  - 0.0
  - 0.0
  - 0.0
  - 1000000.0
  - 0.0
  - 0.0
  - 0.0
  - 0.0
  - 0.0
  - 0.0
  - 1000000.0
  - 0.0
  - 0.0
  - 0.0
  - 0.0
  - 0.0
  - 0.0
  - 1000.0
---
header:
  stamp:
    sec: 1750425292
    nanosec: 460682088
  frame_id: odom_combined
child_frame_id: base_footprint
pose:
  pose:
    position:
      x: 4.911787033081055
      y: -2.0849220752716064
      z: -21.245807647705078
    orientation:
      x: -0.0
      y: 0.0
      z: 0.931358341478484
      w: -0.3641038859425257
  covariance:
  - 0.001
  - 0.0
  - 0.0
  - 0.0
  - 0.0
  - 0.0
  - 0.0
  - 0.001
  - 0.0
  - 0.0
  - 0.0
  - 0.0
  - 0.0
  - 0.0
  - 1000000.0
  - 0.0
  - 0.0
  - 0.0
  - 0.0
  - 0.0
  - 0.0
  - 1000000.0
  - 0.0
  - 0.0
  - 0.0
  - 0.0
  - 0.0
  - 0.0
  - 1000000.0
  - 0.0
  - 0.0
  - 0.0
  - 0.0
  - 0.0
  - 0.0
  - 1000.0
twist:
  twist:
    linear:
      x: 0.0949999988079071
      y: 0.0
      z: 0.0
    angular:
      x: 0.0
      y: 0.0
      z: -0.16699999570846558
  covariance:
  - 0.001
  - 0.0
  - 0.0
  - 0.0
  - 0.0
  - 0.0
  - 0.0
  - 0.001
  - 0.0
  - 0.0
  - 0.0
  - 0.0
  - 0.0
  - 0.0
  - 1000000.0
  - 0.0
  - 0.0
  - 0.0
  - 0.0
  - 0.0
  - 0.0
  - 1000000.0
  - 0.0
  - 0.0
  - 0.0
  - 0.0
  - 0.0
  - 0.0
  - 1000000.0
  - 0.0
  - 0.0
  - 0.0
  - 0.0
  - 0.0
  - 0.0
  - 1000.0
---
header:
  stamp:
    sec: 1750425292
    nanosec: 511491368
  frame_id: odom_combined
child_frame_id: base_footprint
pose:
  pose:
    position:
      x: 4.906074523925781
      y: -2.0901944637298584
      z: -21.25337791442871
    orientation:
      x: -0.0
      y: 0.0
      z: 0.9327298480666659
      w: -0.36057597053261103
  covariance:
  - 0.001
  - 0.0
  - 0.0
  - 0.0
  - 0.0
  - 0.0
  - 0.0
  - 0.001
  - 0.0
  - 0.0
  - 0.0
  - 0.0
  - 0.0
  - 0.0
  - 1000000.0
  - 0.0
  - 0.0
  - 0.0
  - 0.0
  - 0.0
  - 0.0
  - 1000000.0
  - 0.0
  - 0.0
  - 0.0
  - 0.0
  - 0.0
  - 0.0
  - 1000000.0
  - 0.0
  - 0.0
  - 0.0
  - 0.0
  - 0.0
  - 0.0
  - 1000.0
twist:
  twist:
    linear:
      x: 0.15299999713897705
      y: 0.0
      z: 0.0
    angular:
      x: 0.0
      y: 0.0
      z: -0.14900000393390656
  covariance:
  - 0.001
  - 0.0
  - 0.0
  - 0.0
  - 0.0
  - 0.0
  - 0.0
  - 0.001
  - 0.0
  - 0.0
  - 0.0
  - 0.0
  - 0.0
  - 0.0
  - 1000000.0
  - 0.0
  - 0.0
  - 0.0
  - 0.0
  - 0.0
  - 0.0
  - 1000000.0
  - 0.0
  - 0.0
  - 0.0
  - 0.0
  - 0.0
  - 0.0
  - 1000000.0
  - 0.0
  - 0.0
  - 0.0
  - 0.0
  - 0.0
  - 0.0
  - 1000.0
---
header:
  stamp:
    sec: 1750425292
    nanosec: 561243848
  frame_id: odom_combined
child_frame_id: base_footprint
pose:
  pose:
    position:
      x: 4.899041175842285
      y: -2.096587657928467
      z: -21.270994186401367
    orientation:
      x: -0.0
      y: 0.0
      z: 0.9358696273042236
      w: -0.3523464781851148
  covariance:
  - 0.001
  - 0.0
  - 0.0
  - 0.0
  - 0.0
  - 0.0
  - 0.0
  - 0.001
  - 0.0
  - 0.0
  - 0.0
  - 0.0
  - 0.0
  - 0.0
  - 1000000.0
  - 0.0
  - 0.0
  - 0.0
  - 0.0
  - 0.0
  - 0.0
  - 1000000.0
  - 0.0
  - 0.0
  - 0.0
  - 0.0
  - 0.0
  - 0.0
  - 1000000.0
  - 0.0
  - 0.0
  - 0.0
  - 0.0
  - 0.0
  - 0.0
  - 1000.0
twist:
  twist:
    linear:
      x: 0.19099999964237213
      y: 0.0
      z: 0.0
    angular:
      x: 0.0
      y: 0.0
      z: -0.3540000021457672
  covariance:
  - 0.001
  - 0.0
  - 0.0
  - 0.0
  - 0.0
  - 0.0
  - 0.0
  - 0.001
  - 0.0
  - 0.0
  - 0.0
  - 0.0
  - 0.0
  - 0.0
  - 1000000.0
  - 0.0
  - 0.0
  - 0.0
  - 0.0
  - 0.0
  - 0.0
  - 1000000.0
  - 0.0
  - 0.0
  - 0.0
  - 0.0
  - 0.0
  - 0.0
  - 1000000.0
  - 0.0
  - 0.0
  - 0.0
  - 0.0
  - 0.0
  - 0.0
  - 1000.0
---
header:
  stamp:
    sec: 1750425292
    nanosec: 610458696
  frame_id: odom_combined
child_frame_id: base_footprint
pose:
  pose:
    position:
      x: 4.889239311218262
      y: -2.105186939239502
      z: -21.28240966796875
    orientation:
      x: -0.0
      y: 0.0
      z: 0.9378654742664267
      w: -0.34699906653910517
  covariance:
  - 0.001
  - 0.0
  - 0.0
  - 0.0
  - 0.0
  - 0.0
  - 0.0
  - 0.001
  - 0.0
  - 0.0
  - 0.0
  - 0.0
  - 0.0
  - 0.0
  - 1000000.0
  - 0.0
  - 0.0
  - 0.0
  - 0.0
  - 0.0
  - 0.0
  - 1000000.0
  - 0.0
  - 0.0
  - 0.0
  - 0.0
  - 0.0
  - 0.0
  - 1000000.0
  - 0.0
  - 0.0
  - 0.0
  - 0.0
  - 0.0
  - 0.0
  - 1000.0
twist:
  twist:
    linear:
      x: 0.26499998569488525
      y: 0.0
      z: 0.0
    angular:
      x: 0.0
      y: 0.0
      z: -0.23199999332427979
  covariance:
  - 0.001
  - 0.0
  - 0.0
  - 0.0
  - 0.0
  - 0.0
  - 0.0
  - 0.001
  - 0.0
  - 0.0
  - 0.0
  - 0.0
  - 0.0
  - 0.0
  - 1000000.0
  - 0.0
  - 0.0
  - 0.0
  - 0.0
  - 0.0
  - 0.0
  - 1000000.0
  - 0.0
  - 0.0
  - 0.0
  - 0.0
  - 0.0
  - 0.0
  - 1000000.0
  - 0.0
  - 0.0
  - 0.0
  - 0.0
  - 0.0
  - 0.0
  - 1000.0
---
header:
  stamp:
    sec: 1750425292
    nanosec: 660945128
  frame_id: odom_combined
child_frame_id: base_footprint
pose:
  pose:
    position:
      x: 4.877012252807617
      y: -2.1156697273254395
      z: -21.298364639282227
    orientation:
      x: -0.0
      y: 0.0
      z: 0.9406037821302392
      w: -0.33950629602746607
  covariance:
  - 0.001
  - 0.0
  - 0.0
  - 0.0
  - 0.0
  - 0.0
  - 0.0
  - 0.001
  - 0.0
  - 0.0
  - 0.0
  - 0.0
  - 0.0
  - 0.0
  - 1000000.0
  - 0.0
  - 0.0
  - 0.0
  - 0.0
  - 0.0
  - 0.0
  - 1000000.0
  - 0.0
  - 0.0
  - 0.0
  - 0.0
  - 0.0
  - 0.0
  - 1000000.0
  - 0.0
  - 0.0
  - 0.0
  - 0.0
  - 0.0
  - 0.0
  - 1000.0
twist:
  twist:
    linear:
      x: 0.3190000057220459
      y: 0.0
      z: 0.0
    angular:
      x: 0.0
      y: 0.0
      z: -0.3160000145435333
  covariance:
  - 0.001
  - 0.0
  - 0.0
  - 0.0
  - 0.0
  - 0.0
  - 0.0
  - 0.001
  - 0.0
  - 0.0
  - 0.0
  - 0.0
  - 0.0
  - 0.0
  - 1000000.0
  - 0.0
  - 0.0
  - 0.0
  - 0.0
  - 0.0
  - 0.0
  - 1000000.0
  - 0.0
  - 0.0
  - 0.0
  - 0.0
  - 0.0
  - 0.0
  - 1000000.0
  - 0.0
  - 0.0
  - 0.0
  - 0.0
  - 0.0
  - 0.0
  - 1000.0
---
header:
  stamp:
    sec: 1750425292
    nanosec: 710281864
  frame_id: odom_combined
child_frame_id: base_footprint
pose:
  pose:
    position:
      x: 4.863040924072266
      y: -2.1272664070129395
      z: -21.317705154418945
    orientation:
      x: -0.0
      y: 0.0
      z: 0.9438428648771428
      w: -0.3303946827969658
  covariance:
  - 0.001
  - 0.0
  - 0.0
  - 0.0
  - 0.0
  - 0.0
  - 0.0
  - 0.001
